name,type,lat,lon
Pathankot AFB,indian_base,32.2333,75.6333
Srinagar AFB,indian_base,34.0837,74.7973
Amritsar AFB,indian_base,31.634,74.8723
New Delhi,indian_base,28.6139,77.209
Muzaffarabad,attack_site,34.37,73.4711
Bahawalpur,attack_site,29.3956,71.6833
Mansehra,attack_site,34.3333,73.2
Baisaran Valley,attack_site,34.049,75.318
